
  [
  {
    "city": "Budapest", 
    "lat": "47.4925", 
    "lng": "19.0514", 
    "country": "Hungary", 
    "iso2": "HU", 
    "admin_name": "Budapest", 
    "capital": "primary", 
    "population": "2997958", 
    "population_proper": "1706851"
  }, 
  {
    "city": "Debrecen", 
    "lat": "47.5300", 
    "lng": "21.6392", 
    "country": "Hungary", 
    "iso2": "HU", 
    "admin_name": "Hajdú-Bihar", 
    "capital": "admin", 
    "population": "328642", 
    "population_proper": "200974"
  }, 
  {
    "city": "Székesfehérvár", 
    "lat": "47.1956", 
    "lng": "18.4089", 
    "country": "Hungary", 
    "iso2": "HU", 
    "admin_name": "Fejér", 
    "capital": "admin", 
    "population": "272474", 
    "population_proper": "95545"
  }, 
  {
    "city": "Győr", 
    "lat": "47.6842", 
    "lng": "17.6344", 
    "country": "Hungary", 
    "iso2": "HU", 
    "admin_name": "Győr-Moson-Sopron", 
    "capital": "admin", 
    "population": "246159", 
    "population_proper": "132735"
  }, 
  {
    "city": "Szeged", 
    "lat": "46.2550", 
    "lng": "20.1450", 
    "country": "Hungary", 
    "iso2": "HU", 
    "admin_name": "Csongrád-Csanád", 
    "capital": "admin", 
    "population": "239025", 
    "population_proper": "159074"
  }, 
  {
    "city": "Nyíregyháza", 
    "lat": "47.9531", 
    "lng": "21.7271", 
    "country": "Hungary", 
    "iso2": "HU", 
    "admin_name": "Szabolcs-Szatmár-Bereg", 
    "capital": "admin", 
    "population": "238020", 
    "population_proper": "116554"
  }, 
  {
    "city": "Kecskemét", 
    "lat": "46.9061", 
    "lng": "19.6897", 
    "country": "Hungary", 
    "iso2": "HU", 
    "admin_name": "Bács-Kiskun", 
    "capital": "admin", 
    "population": "187835", 
    "population_proper": "109651"
  }, 
  {
    "city": "Miskolc", 
    "lat": "48.0833", 
    "lng": "20.6667", 
    "country": "Hungary", 
    "iso2": "HU", 
    "admin_name": "Borsod-Abaúj-Zemplén", 
    "capital": "admin", 
    "population": "150695", 
    "population_proper": "150695"
  }, 
  {
    "city": "Szombathely", 
    "lat": "47.2351", 
    "lng": "16.6219", 
    "country": "Hungary", 
    "iso2": "HU", 
    "admin_name": "Vas", 
    "capital": "admin", 
    "population": "147920", 
    "population_proper": "78324"
  }, 
  {
    "city": "Pécs", 
    "lat": "46.0708", 
    "lng": "18.2331", 
    "country": "Hungary", 
    "iso2": "HU", 
    "admin_name": "Baranya", 
    "capital": "admin", 
    "population": "140237", 
    "population_proper": "140237"
  }, 
  {
    "city": "Veszprém", 
    "lat": "47.0930", 
    "lng": "17.9138", 
    "country": "Hungary", 
    "iso2": "HU", 
    "admin_name": "Veszprém", 
    "capital": "admin", 
    "population": "133880", 
    "population_proper": "58153"
  }, 
  {
    "city": "Kaposvár", 
    "lat": "46.3638", 
    "lng": "17.7823", 
    "country": "Hungary", 
    "iso2": "HU", 
    "admin_name": "Somogy", 
    "capital": "admin", 
    "population": "112253", 
    "population_proper": "59777"
  }, 
  {
    "city": "Sopron", 
    "lat": "47.6849", 
    "lng": "16.5831", 
    "country": "Hungary", 
    "iso2": "HU", 
    "admin_name": "Sopron", 
    "capital": "admin", 
    "population": "98479", 
    "population_proper": "62900"
  }, 
  {
    "city": "Érd", 
    "lat": "47.3784", 
    "lng": "18.9220", 
    "country": "Hungary", 
    "iso2": "HU", 
    "admin_name": "Pest", 
    "capital": "minor", 
    "population": "70063", 
    "population_proper": "70063"
  }, 
  {
    "city": "Szolnok", 
    "lat": "47.1747", 
    "lng": "20.1965", 
    "country": "Hungary", 
    "iso2": "HU", 
    "admin_name": "Jász-Nagykun-Szolnok", 
    "capital": "admin", 
    "population": "69725", 
    "population_proper": "69725"
  }, 
  {
    "city": "Tatabánya", 
    "lat": "47.5862", 
    "lng": "18.3949", 
    "country": "Hungary", 
    "iso2": "HU", 
    "admin_name": "Komárom-Esztergom", 
    "capital": "admin", 
    "population": "65145", 
    "population_proper": "65145"
  }, 
  {
    "city": "Békéscsaba", 
    "lat": "46.6790", 
    "lng": "21.0910", 
    "country": "Hungary", 
    "iso2": "HU", 
    "admin_name": "Békés", 
    "capital": "admin", 
    "population": "58002", 
    "population_proper": "58002"
  }, 
  {
    "city": "Zalaegerszeg", 
    "lat": "46.8392", 
    "lng": "16.8511", 
    "country": "Hungary", 
    "iso2": "HU", 
    "admin_name": "Zala", 
    "capital": "admin", 
    "population": "55470", 
    "population_proper": "55470"
  }, 
  {
    "city": "Eger", 
    "lat": "47.8990", 
    "lng": "20.3747", 
    "country": "Hungary", 
    "iso2": "HU", 
    "admin_name": "Heves", 
    "capital": "admin", 
    "population": "51168", 
    "population_proper": "51168"
  }, 
  {
    "city": "Nagykanizsa", 
    "lat": "46.4550", 
    "lng": "16.9925", 
    "country": "Hungary", 
    "iso2": "HU", 
    "admin_name": "Nagykanizsa", 
    "capital": "admin", 
    "population": "46866", 
    "population_proper": "45428"
  }, 
  {
    "city": "Dunaújváros", 
    "lat": "46.9806", 
    "lng": "18.9127", 
    "country": "Hungary", 
    "iso2": "HU", 
    "admin_name": "Dunaújváros", 
    "capital": "admin", 
    "population": "44200", 
    "population_proper": "42136"
  }, 
  {
    "city": "Dunakeszi", 
    "lat": "47.6303", 
    "lng": "19.1412", 
    "country": "Hungary", 
    "iso2": "HU", 
    "admin_name": "Pest", 
    "capital": "minor", 
    "population": "43990", 
    "population_proper": "43990"
  }, 
  {
    "city": "Hódmezővásárhely", 
    "lat": "46.4304", 
    "lng": "20.3188", 
    "country": "Hungary", 
    "iso2": "HU", 
    "admin_name": "Hódmezővásárhely", 
    "capital": "admin", 
    "population": "43311", 
    "population_proper": "42691"
  }, 
  {
    "city": "Szigetszentmiklós", 
    "lat": "47.3456", 
    "lng": "19.0483", 
    "country": "Hungary", 
    "iso2": "HU", 
    "admin_name": "Pest", 
    "capital": "minor", 
    "population": "40519", 
    "population_proper": "40519"
  }, 
  {
    "city": "Cegléd", 
    "lat": "47.1743", 
    "lng": "19.8020", 
    "country": "Hungary", 
    "iso2": "HU", 
    "admin_name": "Pest", 
    "capital": "minor", 
    "population": "35334", 
    "population_proper": "35088"
  }, 
  {
    "city": "Baja", 
    "lat": "46.1833", 
    "lng": "18.9536", 
    "country": "Hungary", 
    "iso2": "HU", 
    "admin_name": "Bács-Kiskun", 
    "capital": "minor", 
    "population": "34788", 
    "population_proper": "33893"
  }, 
  {
    "city": "Mosonmagyaróvár", 
    "lat": "47.8737", 
    "lng": "17.2687", 
    "country": "Hungary", 
    "iso2": "HU", 
    "admin_name": "Győr-Moson-Sopron", 
    "capital": "minor", 
    "population": "34439", 
    "population_proper": "34439"
  }, 
  {
    "city": "Vác", 
    "lat": "47.7752", 
    "lng": "19.1310", 
    "country": "Hungary", 
    "iso2": "HU", 
    "admin_name": "Pest", 
    "capital": "minor", 
    "population": "32927", 
    "population_proper": "32927"
  }, 
  {
    "city": "Salgótarján", 
    "lat": "48.1040", 
    "lng": "19.8075", 
    "country": "Hungary", 
    "iso2": "HU", 
    "admin_name": "Nógrád", 
    "capital": "admin", 
    "population": "32304", 
    "population_proper": "32304"
  }, 
  {
    "city": "Gödöllő", 
    "lat": "47.6000", 
    "lng": "19.3667", 
    "country": "Hungary", 
    "iso2": "HU", 
    "admin_name": "Pest", 
    "capital": "minor", 
    "population": "31779", 
    "population_proper": "31779"
  }, 
  {
    "city": "Ózd", 
    "lat": "48.2192", 
    "lng": "20.2869", 
    "country": "Hungary", 
    "iso2": "HU", 
    "admin_name": "Borsod-Abaúj-Zemplén", 
    "capital": "minor", 
    "population": "31234", 
    "population_proper": "31234"
  }, 
  {
    "city": "Szekszárd", 
    "lat": "46.3560", 
    "lng": "18.7038", 
    "country": "Hungary", 
    "iso2": "HU", 
    "admin_name": "Tolna", 
    "capital": "admin", 
    "population": "30963", 
    "population_proper": "30963"
  }, 
  {
    "city": "Pápa", 
    "lat": "47.3237", 
    "lng": "17.4680", 
    "country": "Hungary", 
    "iso2": "HU", 
    "admin_name": "Veszprém", 
    "capital": "minor", 
    "population": "30382", 
    "population_proper": "29387"
  }, 
  {
    "city": "Budaörs", 
    "lat": "47.4607", 
    "lng": "18.9580", 
    "country": "Hungary", 
    "iso2": "HU", 
    "admin_name": "Pest", 
    "capital": "", 
    "population": "29018", 
    "population_proper": "29018"
  }, 
  {
    "city": "Gyöngyös", 
    "lat": "47.7833", 
    "lng": "19.9333", 
    "country": "Hungary", 
    "iso2": "HU", 
    "admin_name": "Heves", 
    "capital": "minor", 
    "population": "28179", 
    "population_proper": "28179"
  }, 
  {
    "city": "Esztergom", 
    "lat": "47.7856", 
    "lng": "18.7403", 
    "country": "Hungary", 
    "iso2": "HU", 
    "admin_name": "Komárom-Esztergom", 
    "capital": "minor", 
    "population": "28026", 
    "population_proper": "28026"
  }, 
  {
    "city": "Ajka", 
    "lat": "47.1006", 
    "lng": "17.5522", 
    "country": "Hungary", 
    "iso2": "HU", 
    "admin_name": "Veszprém", 
    "capital": "minor", 
    "population": "27995", 
    "population_proper": "26963"
  }, 
  {
    "city": "Szentendre", 
    "lat": "47.7044", 
    "lng": "19.0686", 
    "country": "Hungary", 
    "iso2": "HU", 
    "admin_name": "Pest", 
    "capital": "minor", 
    "population": "27534", 
    "population_proper": "27534"
  }
  ]